{
  "places": [
    {
      "name": "삼성서울병원",
      "address": "서울 강남구 일원동",
      "latitude": 37.48718754,
      "longitude": 127.08470804,
      "distance": 15212.251824962199,
      "category": "의료편의 > 의료시설 > 종합병원",
      "tel": "1599-3114"
    },
    {
      "name": "삼성서울병원 정문",
      "address": "서울 강남구 일원동",
      "latitude": 37.48677089,
      "longitude": 127.08301376,
      "distance": 15083.452461662899,
      "category": "의료편의 > 의료시설 > 종합병원",
      "tel": "1599-3114"
    },
    {
      "name": "삼성서울병원 후문",
      "address": "서울 강남구 일원동",
      "latitude": 37.48938173,
      "longitude": 127.08440245,
      "distance": 15115.905366543646,
      "category": "의료편의 > 의료시설 > 종합병원",
      "tel": "1599-3114"
    },
    {
      "name": "삼성서울병원 별관방면주차장",
      "address": "서울 강남구 일원동",
      "latitude": 37.48793748,
      "longitude": 127.08618011,
      "distance": 15312.0601531712,
      "category": "의료편의 > 의료시설 > 종합병원",
      "tel": "1599-3114"
    },
    {
      "name": "삼성서울병원장례식장",
      "address": "서울 강남구 일원동",
      "latitude": 37.49060389,
      "longitude": 127.08926309,
      "distance": 15491.069543034004,
      "category": "생활편의 > 가정의례 > 장례식장",
      "tel": "02-3410-3151"
    },
    {
      "name": "삼성서울병원 암병원",
      "address": "서울 강남구 일원동",
      "latitude": 37.48879852,
      "longitude": 127.08798548,
      "distance": 15437.516897523841,
      "category": "의료편의 > 의료시설 > 종합병원",
      "tel": "1599-3114"
    },
    {
      "name": "삼성서울병원 암병원 정문",
      "address": "서울 강남구 일원동",
      "latitude": 37.48877075,
      "longitude": 127.0877355,
      "distance": 15417.213676850022,
      "category": "의료편의 > 의료시설 > 종합병원",
      "tel": "1599-3114"
    },
    {
      "name": "삼성서울병원 암병원 후문",
      "address": "서울 강남구 일원동",
      "latitude": 37.48982617,
      "longitude": 127.08740217,
      "distance": 15356.379371799676,
      "category": "의료편의 > 의료시설 > 종합병원",
      "tel": "1599-3114"
    },
    {
      "name": "삼성서울병원 정문주차장",
      "address": "서울 강남구 일원동",
      "latitude": 37.48718754,
      "longitude": 127.08470804,
      "distance": 15212.251824962199,
      "category": "교통편의 > 자동차시설 > 주차장",
      "tel": ""
    },
    {
      "name": "삼성서울병원 본관주차장",
      "address": "서울 강남구 일원동",
      "latitude": 37.48846515,
      "longitude": 127.0837081,
      "distance": 15086.30306879625,
      "category": "교통편의 > 자동차시설 > 주차장",
      "tel": ""
    },
    {
      "name": "삼성서울병원장례식장 주차장",
      "address": "서울 강남구 일원동",
      "latitude": 37.49060389,
      "longitude": 127.08926309,
      "distance": 15491.069543034004,
      "category": "교통편의 > 자동차시설 > 주차장",
      "tel": ""
    },
    {
      "name": "삼성서울병원 본관지하주차장",
      "address": "서울 강남구 일원동",
      "latitude": 37.4893262,
      "longitude": 127.08559679,
      "distance": 15218.765444414035,
      "category": "교통편의 > 자동차시설 > 주차장",
      "tel": ""
    },
    {
      "name": "삼성서울병원 암병원 주차장",
      "address": "서울 강남구 일원동",
      "latitude": 37.48879852,
      "longitude": 127.08798548,
      "distance": 15437.516897523841,
      "category": "교통편의 > 자동차시설 > 주차장",
      "tel": ""
    },
    {
      "name": "삼성서울병원 별관",
      "address": "서울 강남구 일원동",
      "latitude": 37.4893262,
      "longitude": 127.08559679,
      "distance": 15218.765444414035,
      "category": "의료편의 > 의료시설 > 종합병원",
      "tel": "02-3410-2114"
    },
    {
      "name": "삼성서울병원앞[교차로]",
      "address": "서울 강남구 일원동",
      "latitude": 37.48877064,
      "longitude": 127.0817916,
      "distance": 14914.621211577018,
      "category": "교통편의 > 교통시설 > 교차로",
      "tel": ""
    },
    {
      "name": "삼성서울병원 응급실",
      "address": "서울 강남구 일원동",
      "latitude": 37.48774305,
      "longitude": 127.08579126,
      "distance": 15285.489169521408,
      "category": "의료편의 > 의료시설 > 응급실",
      "tel": "02-3410-0129"
    },
    {
      "name": "삼성서울병원어린이집",
      "address": "서울 강남구 수서동",
      "latitude": 37.48538226,
      "longitude": 127.08809667,
      "distance": 15557.627553528797,
      "category": "공공편의 > 교육기관 > 유아교육",
      "tel": "02-3411-9141"
    },
    {
      "name": "삼성서울병원어린이집 주차장",
      "address": "서울 강남구 수서동",
      "latitude": 37.48538226,
      "longitude": 127.08809667,
      "distance": 15557.627553528797,
      "category": "공공편의 > 교육기관 > 유아교육",
      "tel": "02-3411-9141"
    },
    {
      "name": "삼성서울병원 서초생활관",
      "address": "서울 서초구 서초동",
      "latitude": 37.47927043,
      "longitude": 127.00877073,
      "distance": 9501.216385321492,
      "category": "건물\/시설 > 주요건물 > 기숙사",
      "tel": "02-522-0569"
    },
    {
      "name": "삼성서울병원장례식장주차장 전기차충전소",
      "address": "서울 강남구 일원동",
      "latitude": 37.49054834,
      "longitude": 127.08915199,
      "distance": 15483.269524971043,
      "category": "교통편의 > 자동차시설 > 전기차충전소",
      "tel": ""
    }
  ],
  "totalCount": 2186
}